[
    { "ID": 2, "UUID": "1", "COUNTRY": "中国大陆", "REGION": "江苏", "OFFICE": "火星科技南京设计中心", "OFFICE_ENG": "", "ADDRESS": "南京市建邺区富春江东街8号", "DEPARTMENT": "集团职能、交规院、轨道院、市政院等", "DEPARTMENT_ENG": "", "FUNCTION": "全功能", "EMPLOYEE_NUM": 1200, "LONGITUDE": "118.750166", "LATITUDE": "31.994121"},
    { "ID": 3, "UUID": "2", "COUNTRY": "中国大陆", "REGION": "江苏", "OFFICE": "火星科技南京水西门创业中心", "OFFICE_ENG": "", "ADDRESS": "南京市建邺区水西门大街223号", "DEPARTMENT": "燕宁建设、燕宁咨询、火星畅联、火星能源", "DEPARTMENT_ENG": "", "FUNCTION": "全功能", "EMPLOYEE_NUM": 300, "LONGITUDE": "118.756814", "LATITUDE": "32.04002"},
    { "ID": 4, "UUID": "3", "COUNTRY": "中国大陆", "REGION": "江苏", "OFFICE": "火星科技南京方山研发基地", "OFFICE_ENG": "", "ADDRESS": "南京市江宁区诚信大道2200号", "DEPARTMENT": "火星院、检测院、信息所", "DEPARTMENT_ENG": "", "FUNCTION": "科研", "EMPLOYEE_NUM": 600, "LONGITUDE": "118.873279", "LATITUDE": "31.926967"},
    { "ID": 5, "UUID": "4", "COUNTRY": "中国大陆", "REGION": "江苏", "OFFICE": "火星科技徐州设计办公室", "OFFICE_ENG": "", "ADDRESS": "徐州市铜山区汉泉山庄北区商业街302-222", "DEPARTMENT": "交规院道一所", "DEPARTMENT_ENG": "", "FUNCTION": "设计", "EMPLOYEE_NUM": 15, "LONGITUDE": "117.158754", "LATITUDE": "34.204818"},
    { "ID": 6, "UUID": "5", "COUNTRY": "中国大陆", "REGION": "江苏", "OFFICE": "火星科技连云港中心", "OFFICE_ENG": "", "ADDRESS": "连云港市海州区通灌南路75号兆隆大厦6楼", "DEPARTMENT": "经营部华东大区江苏营销中心连云港办事处、交规院道一所连云港分院、连云港监理", "DEPARTMENT_ENG": "", "FUNCTION": "营销、设计、监理", "EMPLOYEE_NUM": 99, "LONGITUDE": "119.192671", "LATITUDE": "34.59859"},
    { "ID": 7, "UUID": "6", "COUNTRY": "中国大陆", "REGION": "江苏", "OFFICE": "火星科技连云港市政设计办公室", "OFFICE_ENG": "", "ADDRESS": "连云港市海州区朝阳东路金海财富广场B座904-905", "DEPARTMENT": "市政院市政三所", "DEPARTMENT_ENG": "", "FUNCTION": "设计", "EMPLOYEE_NUM": 2, "LONGITUDE": "119.213366", "LATITUDE": "34.603997"},
    { "ID": 8, "UUID": "7", "COUNTRY": "中国大陆", "REGION": "江苏", "OFFICE": "火星设计淮安中心", "OFFICE_ENG": "", "ADDRESS": "淮安市经济技术开发区高教园区科技路12号", "DEPARTMENT": "火星设计", "DEPARTMENT_ENG": "", "FUNCTION": "全功能", "EMPLOYEE_NUM": 220, "LONGITUDE": "119.052963", "LATITUDE": "33.544031"},
    { "ID": 9, "UUID": "8", "COUNTRY": "中国大陆", "REGION": "江苏", "OFFICE": "火星科技宿迁设计办公室", "OFFICE_ENG": "", "ADDRESS": "宿迁市洪泽湖路宿迁市交通运输局老大楼9楼", "DEPARTMENT": "交规院道一所宿迁分院", "DEPARTMENT_ENG": "", "FUNCTION": "设计", "EMPLOYEE_NUM": 19, "LONGITUDE": "118.267343", "LATITUDE": "33.966616"},
    { "ID": 10, "UUID": "9", "COUNTRY": "中国大陆", "REGION": "江苏", "OFFICE": "火星科技泰州设计办公室", "OFFICE_ENG": "", "ADDRESS": "泰州市海陵区春晖路5-23、5-24号", "DEPARTMENT": "经营部华东大区江苏营销中心苏中办、交规院道四所泰州分院", "DEPARTMENT_ENG": "", "FUNCTION": "设计", "EMPLOYEE_NUM": 21, "LONGITUDE": "119.949302", "LATITUDE": "32.504606"},
    { "ID": 11, "UUID": "10", "COUNTRY": "中国大陆", "REGION": "江苏", "OFFICE": "火星科技南通设计办公室", "OFFICE_ENG": "", "ADDRESS": "南通市钟秀中路106号汇隆新城A座1001", "DEPARTMENT": "交规院道一所南通分院", "DEPARTMENT_ENG": "", "FUNCTION": "设计", "EMPLOYEE_NUM": 5, "LONGITUDE": "120.868814", "LATITUDE": "32.037748"},
    { "ID": 12, "UUID": "11", "COUNTRY": "中国大陆", "REGION": "江苏", "OFFICE": "火星科技镇江营销中心", "OFFICE_ENG": "", "ADDRESS": "镇江丹阳市西环路缇香花园2期19幢2单元304", "DEPARTMENT": "经营部华东大区江苏营销中心常镇办", "DEPARTMENT_ENG": "", "FUNCTION": "营销", "EMPLOYEE_NUM": 1, "LONGITUDE": "119.570565", "LATITUDE": "32.013984"},
    { "ID": 13, "UUID": "12", "COUNTRY": "中国大陆", "REGION": "江苏", "OFFICE": "火星科技常州中心", "OFFICE_ENG": "", "ADDRESS": "常州市新北区汉江中路368号金城大厦9楼", "DEPARTMENT": "常州市交通规划设计院有限公司、江苏火星建设项目管理有限公司、江苏省建设工程设计院有限公司常州分院", "DEPARTMENT_ENG": "", "FUNCTION": "营销、设计、监理", "EMPLOYEE_NUM": 60, "LONGITUDE": "119.981383", "LATITUDE": "31.837241"},
    { "ID": 14, "UUID": "13", "COUNTRY": "中国大陆", "REGION": "江苏", "OFFICE": "火星科技苏州设计办公室", "OFFICE_ENG": "", "ADDRESS": "苏州市吴江区交通路3265号", "DEPARTMENT": "交规院道一所吴江分院", "DEPARTMENT_ENG": "", "FUNCTION": "设计", "EMPLOYEE_NUM": 4, "LONGITUDE": "120.656702", "LATITUDE": "31.16818"},
    { "ID": 15, "UUID": "14", "COUNTRY": "中国大陆", "REGION": "江苏", "OFFICE": "火星科技昆山设计办公室", "OFFICE_ENG": "", "ADDRESS": "昆山市前进东路898号帝景大厦1305", "DEPARTMENT": "交规院西南中心", "DEPARTMENT_ENG": "", "FUNCTION": "设计", "EMPLOYEE_NUM": 4, "LONGITUDE": "121.011378", "LATITUDE": "31.390215"},
    { "ID": 16, "UUID": "15", "COUNTRY": "中国大陆", "REGION": "江苏", "OFFICE": "火星科技常熟设计中心", "OFFICE_ENG": "", "ADDRESS": "常熟市虞山镇闽江西路330号", "DEPARTMENT": "苏通公路分院、常熟市交通规划设计院有限公司", "DEPARTMENT_ENG": "", "FUNCTION": "设计", "EMPLOYEE_NUM": 58, "LONGITUDE": "120.75404", "LATITUDE": "31.674054"},
    { "ID": 17, "UUID": "16", "COUNTRY": "中国大陆", "REGION": "北京", "OFFICE": "火星科技北京中心", "OFFICE_ENG": "", "ADDRESS": "北京市东城区安定门外大街丁88号江苏大厦B座11层", "DEPARTMENT": "经营部华北大区北京营销中心、火星院环境所、市政院市政一所、瑞威基础、瑞威检测、剑平瑞华、英诺伟霆、燕宁国际", "DEPARTMENT_ENG": "", "FUNCTION": "全功能", "EMPLOYEE_NUM": 101, "LONGITUDE": "116.415667", "LATITUDE": "39.963451"},
    { "ID": 18, "UUID": "17", "COUNTRY": "中国大陆", "REGION": "北京", "OFFICE": "诚诺未来北京设计办公室", "OFFICE_ENG": "", "ADDRESS": "北京市朝阳区望京西园221号博泰大厦1705", "DEPARTMENT": "诚诺未来", "DEPARTMENT_ENG": "", "FUNCTION": "设计", "EMPLOYEE_NUM": 20, "LONGITUDE": "116.479406", "LATITUDE": "40.007936"},
    { "ID": 19, "UUID": "18", "COUNTRY": "中国大陆", "REGION": "天津", "OFFICE": "火星科技京津冀区域检测办公室", "OFFICE_ENG": "", "ADDRESS": "天津市河东区津滨大道红星国际晶品轩2号楼1701", "DEPARTMENT": "检测研究院（工程检测中心）京津冀区域中心", "DEPARTMENT_ENG": "", "FUNCTION": "检测", "EMPLOYEE_NUM": 3, "LONGITUDE": "117.2626", "LATITUDE": "39.125108"},
    { "ID": 20, "UUID": "19", "COUNTRY": "中国大陆", "REGION": "天津", "OFFICE": "火星科技天津营销中心", "OFFICE_ENG": "", "ADDRESS": "天津市滨海新区广达街贻欣园2号楼2门602", "DEPARTMENT": "经营部华北大区北京营销中心天津办事处", "DEPARTMENT_ENG": "", "FUNCTION": "营销", "EMPLOYEE_NUM": 1, "LONGITUDE": "117.705071", "LATITUDE": "39.0315"},
    { "ID": 21, "UUID": "20", "COUNTRY": "中国大陆", "REGION": "浙江", "OFFICE": "火星科技杭州营销中心", "OFFICE_ENG": "", "ADDRESS": "杭州市中河南路60号1202室", "DEPARTMENT": "经营部华东大区浙江营销中心", "DEPARTMENT_ENG": "", "FUNCTION": "营销", "EMPLOYEE_NUM": 1, "LONGITUDE": "120.17809", "LATITUDE": "30.23921"},
    { "ID": 22, "UUID": "21", "COUNTRY": "中国大陆", "REGION": "浙江", "OFFICE": "火星浙江杭州中心", "OFFICE_ENG": "", "ADDRESS": "杭州市西湖区萍水西街80号优盘时代中心4号楼7楼", "DEPARTMENT": "火星浙江", "DEPARTMENT_ENG": "", "FUNCTION": "全功能", "EMPLOYEE_NUM": 60, "LONGITUDE": "120.106794", "LATITUDE": "30.306757"},
    { "ID": 23, "UUID": "22", "COUNTRY": "中国大陆", "REGION": "浙江", "OFFICE": "火星浙江杭州大江东设计办公室", "OFFICE_ENG": "", "ADDRESS": "杭州市大江东产业集聚区义蓬街道义府大街580号3楼", "DEPARTMENT": "火星浙江", "DEPARTMENT_ENG": "", "FUNCTION": "设计", "EMPLOYEE_NUM": 40, "LONGITUDE": "120.500373", "LATITUDE": "30.279137"},
    { "ID": 24, "UUID": "23", "COUNTRY": "中国大陆", "REGION": "浙江", "OFFICE": "厦门市政杭州设计中心", "OFFICE_ENG": "", "ADDRESS": "杭州市浙窑公园创意园11号楼", "DEPARTMENT": "厦门市政设计院杭州分院", "DEPARTMENT_ENG": "", "FUNCTION": "设计", "EMPLOYEE_NUM": 2, "LONGITUDE": "120.142469", "LATITUDE": "30.337649"},
    { "ID": 25, "UUID": "24", "COUNTRY": "中国大陆", "REGION": "安徽", "OFFICE": "火星科技合肥环评办公室", "OFFICE_ENG": "", "ADDRESS": "合肥市政务区天鹅湖东路蔚蓝商务港B座614", "DEPARTMENT": "火星院环境所", "DEPARTMENT_ENG": "", "FUNCTION": "环评", "EMPLOYEE_NUM": 6, "LONGITUDE": "117.240924", "LATITUDE": "31.820169"},
    { "ID": 26, "UUID": "25", "COUNTRY": "中国大陆", "REGION": "福建", "OFFICE": "厦门市政湖里中心", "OFFICE_ENG": "", "ADDRESS": "厦门市湖里区云顶中路2777号市政大厦", "DEPARTMENT": "经营部华南大区福建营销中心、厦门市政设计一院、设计二院、综合院、前期院、职能部门", "DEPARTMENT_ENG": "", "FUNCTION": "全功能", "EMPLOYEE_NUM": 304, "LONGITUDE": "118.160074", "LATITUDE": "24.496566"},
    { "ID": 27, "UUID": "26", "COUNTRY": "中国大陆", "REGION": "福建", "OFFICE": "厦门市政思明设计中心", "OFFICE_ENG": "", "ADDRESS": "厦门市思明区美湖路15号", "DEPARTMENT": "厦门市政综合院测量所、鹭正施工图审查所", "DEPARTMENT_ENG": "", "FUNCTION": "设计", "EMPLOYEE_NUM": 130, "LONGITUDE": "118.096053", "LATITUDE": "24.473573"},
    { "ID": 28, "UUID": "27", "COUNTRY": "中国大陆", "REGION": "福建", "OFFICE": "厦门市政南平设计中心", "OFFICE_ENG": "", "ADDRESS": "南平市建阳区童子山立交桥边艺美家居一楼", "DEPARTMENT": "厦门市政设计院南平分院", "DEPARTMENT_ENG": "", "FUNCTION": "设计", "EMPLOYEE_NUM": 6, "LONGITUDE": "118.104231", "LATITUDE": "27.37261"},
    { "ID": 29, "UUID": "28", "COUNTRY": "中国大陆", "REGION": "福建", "OFFICE": "厦门市政平潭设计中心", "OFFICE_ENG": "", "ADDRESS": "福州市平潭县潭城镇万宝东路5号（前进小区）", "DEPARTMENT": "厦门市政设计院平潭分院", "DEPARTMENT_ENG": "", "FUNCTION": "设计", "EMPLOYEE_NUM": 8, "LONGITUDE": "119.795256", "LATITUDE": "25.489037"},
    { "ID": 30, "UUID": "29", "COUNTRY": "中国大陆", "REGION": "江西", "OFFICE": "火星科技南昌办公室", "OFFICE_ENG": "", "ADDRESS": "南昌市红谷滩新区红谷中大道1368号鼎峰中央B座801-803 ", "DEPARTMENT": "经营部华东大区江苏营销中心江西办事处、火星浙江", "DEPARTMENT_ENG": "", "FUNCTION": "营销、设计", "EMPLOYEE_NUM": 11, "LONGITUDE": "115.864989", "LATITUDE": "28.695673"},
    { "ID": 31, "UUID": "30", "COUNTRY": "中国大陆", "REGION": "河南", "OFFICE": "中山水利郑州设计办公室", "OFFICE_ENG": "", "ADDRESS": "郑州市金水区民航路6号院", "DEPARTMENT": "中山水利河南分公司", "DEPARTMENT_ENG": "", "FUNCTION": "设计", "EMPLOYEE_NUM": 5, "LONGITUDE": "113.72577", "LATITUDE": "34.77101"},
    { "ID": 32, "UUID": "31", "COUNTRY": "中国大陆", "REGION": "湖南", "OFFICE": "火星湖南长沙中心", "OFFICE_ENG": "", "ADDRESS": "长沙市开福区兴联路399号友谊咨询大厦17楼", "DEPARTMENT": "火星科技集团湖南工程勘察设计有限公司", "DEPARTMENT_ENG": "", "FUNCTION": "全功能", "EMPLOYEE_NUM": 100, "LONGITUDE": "112.976115", "LATITUDE": "28.30158"},
    { "ID": 33, "UUID": "32", "COUNTRY": "中国大陆", "REGION": "广州", "OFFICE": "火星科技广州营销中心", "OFFICE_ENG": "", "ADDRESS": "广州市天河区天河北路626号保利中宇广场A座1401", "DEPARTMENT": "经营部华南大区广东营销中心", "DEPARTMENT_ENG": "", "FUNCTION": "营销", "EMPLOYEE_NUM": 5, "LONGITUDE": "113.348185", "LATITUDE": "23.146664"},
    { "ID": 34, "UUID": "33", "COUNTRY": "中国大陆", "REGION": "广州", "OFFICE": "火星科技广州检测中心", "OFFICE_ENG": "", "ADDRESS": "广州市珠江新城华夏路28号富力盈信大厦1812 ", "DEPARTMENT": "检测研究院（工程检测中心）广东区域中心", "DEPARTMENT_ENG": "", "FUNCTION": "检测", "EMPLOYEE_NUM": 140, "LONGITUDE": "113.328411", "LATITUDE": "23.130958"},
    { "ID": 35, "UUID": "34", "COUNTRY": "中国大陆", "REGION": "广州", "OFFICE": "中山水利东区中心", "OFFICE_ENG": "", "ADDRESS": "中山市东区长江路6号弘业大厦1603 ", "DEPARTMENT": "中山市水利水电勘测设计咨询有限公司", "DEPARTMENT_ENG": "", "FUNCTION": "全功能", "EMPLOYEE_NUM": 340, "LONGITUDE": "113.429616", "LATITUDE": "22.522009"},
    { "ID": 36, "UUID": "35", "COUNTRY": "中国大陆", "REGION": "广州", "OFFICE": "火星科技中山设计办公室", "OFFICE_ENG": "", "ADDRESS": "中山市中山四路88号盛景尚峰2座902", "DEPARTMENT": "交规院道二所", "DEPARTMENT_ENG": "", "FUNCTION": "设计", "EMPLOYEE_NUM": 6, "LONGITUDE": "113.408378", "LATITUDE": "22.517281"},
    { "ID": 37, "UUID": "36", "COUNTRY": "中国大陆", "REGION": "广州", "OFFICE": "火星科技江门设计办公室", "OFFICE_ENG": "", "ADDRESS": "江门市蓬江区迎宾大道中131号11层1102号", "DEPARTMENT": "火星科技珠西中心院", "DEPARTMENT_ENG": "", "FUNCTION": "设计", "EMPLOYEE_NUM": 3, "LONGITUDE": "113.088956", "LATITUDE": "22.605149"},
    { "ID": 38, "UUID": "37", "COUNTRY": "中国大陆", "REGION": "广西", "OFFICE": "火星科技柳州营销中心", "OFFICE_ENG": "", "ADDRESS": "柳州市城中区桂中大道阳光100广场C区31栋25-2", "DEPARTMENT": "经营部西北大区贵州营销中心广西办事处", "DEPARTMENT_ENG": "", "FUNCTION": "营销", "EMPLOYEE_NUM": 1, "LONGITUDE": "109.433843", "LATITUDE": "24.323969"},
    { "ID": 39, "UUID": "38", "COUNTRY": "中国大陆", "REGION": "海南", "OFFICE": "火星科技海口营销中心", "OFFICE_ENG": "", "ADDRESS": "海口市美兰区海府路72号海南省水务厅6栋801", "DEPARTMENT": "经营部华南大区广东营销中心海南办事处", "DEPARTMENT_ENG": "", "FUNCTION": "营销", "EMPLOYEE_NUM": 1, "LONGITUDE": "110.365763", "LATITUDE": "20.029871"},
    { "ID": 40, "UUID": "39", "COUNTRY": "中国大陆", "REGION": "四川", "OFFICE": "中山水利成都设计办公室", "OFFICE_ENG": "", "ADDRESS": "成都市金牛区银杏路2号1栋14层1号", "DEPARTMENT": "中山水利四川分公司", "DEPARTMENT_ENG": "", "FUNCTION": "设计", "EMPLOYEE_NUM": 4, "LONGITUDE": "104.03859", "LATITUDE": "30.68157"},
    { "ID": 41, "UUID": "40", "COUNTRY": "中国大陆", "REGION": "四川", "OFFICE": "火星科技成都设计办公室", "OFFICE_ENG": "", "ADDRESS": "成都市高新区天府二街139号中国水电大厦13楼", "DEPARTMENT": "火星科技四川分公司", "DEPARTMENT_ENG": "", "FUNCTION": "设计", "EMPLOYEE_NUM": 8, "LONGITUDE": "104.071288", "LATITUDE": "30.557207"},
    { "ID": 42, "UUID": "41", "COUNTRY": "中国大陆", "REGION": "贵州", "OFFICE": "火星科技贵州办公室", "OFFICE_ENG": "", "ADDRESS": "贵州市观山湖区长岭北路美的财智中心A座21楼", "DEPARTMENT": "经营部西南大区贵州营销中心、检测研究院（桥梁结构工程研究所）贵州区域中心、火星贵州", "DEPARTMENT_ENG": "", "FUNCTION": "营销、设计、检测", "EMPLOYEE_NUM": 44, "LONGITUDE": "106.656673", "LATITUDE": "26.646421"},
    { "ID": 43, "UUID": "42", "COUNTRY": "中国大陆", "REGION": "云南", "OFFICE": "火星科技昆明中心", "OFFICE_ENG": "", "ADDRESS": "昆明市官渡区春城路219号东航投资大厦11楼", "DEPARTMENT": "经营部西南大区云南营销中心、火星云南、检测研究院（桥梁结构工程研究所）云南区域中心", "DEPARTMENT_ENG": "", "FUNCTION": "营销、设计", "EMPLOYEE_NUM": 81, "LONGITUDE": "102.732888", "LATITUDE": "25.028249"},
    { "ID": 44, "UUID": "43", "COUNTRY": "中国大陆", "REGION": "甘肃", "OFFICE": "火星科技兰州中心", "OFFICE_ENG": "", "ADDRESS": "兰州市城关区雁南路18号创新大厦19-20楼", "DEPARTMENT": "经营部西北大区甘肃营销中心、检测研究院（岩土工程设计研究所）甘肃青海区域中心、甘肃科地", "DEPARTMENT_ENG": "", "FUNCTION": "全功能", "EMPLOYEE_NUM": 242, "LONGITUDE": "103.900057", "LATITUDE": "36.05899"},
    { "ID": 45, "UUID": "44", "COUNTRY": "中国大陆", "REGION": "新疆", "OFFICE": "火星科技乌鲁木齐营销中心", "OFFICE_ENG": "", "ADDRESS": "乌鲁木齐市沙依巴克区奇台路460号兴乐世贸大厦2702", "DEPARTMENT": "经营部西北大区新疆营销中心", "DEPARTMENT_ENG": "", "FUNCTION": "营销", "EMPLOYEE_NUM": 1, "LONGITUDE": "87.59901", "LATITUDE": "43.794731"},
    { "ID": 46, "UUID": "45", "COUNTRY": "中国大陆", "REGION": "新疆", "OFFICE": "火星科技乌鲁木齐检测办公室", "OFFICE_ENG": "", "ADDRESS": "乌鲁木齐市沙依巴克区长江路92号东方花园1栋1521", "DEPARTMENT": "检测研究院（岩土工程设计研究所）新疆区域中心", "DEPARTMENT_ENG": "", "FUNCTION": "检测", "EMPLOYEE_NUM": 21, "LONGITUDE": "87.598177", "LATITUDE": "43.79158"},
    { "ID": 47, "UUID": "46", "COUNTRY": "中国大陆", "REGION": "新疆", "OFFICE": "中山水利阿克苏设计办公室", "OFFICE_ENG": "", "ADDRESS": "阿克苏市栏杆区英阿瓦提路新农世纪城2期1栋2单元1604", "DEPARTMENT": "中山水利阿克苏分公司", "DEPARTMENT_ENG": "", "FUNCTION": "设计", "EMPLOYEE_NUM": 4, "LONGITUDE": "80.280439", "LATITUDE": "41.18683"},
    { "ID": 48, "UUID": "47", "COUNTRY": "中国大陆", "REGION": "新疆", "OFFICE": "火星科技乌鲁木齐设计中心", "OFFICE_ENG": "", "ADDRESS": "乌鲁木齐市新市区迎宾北一路航空嘉园48号楼3单元", "DEPARTMENT": "交规院新疆分院", "DEPARTMENT_ENG": "", "FUNCTION": "设计", "EMPLOYEE_NUM": 100, "LONGITUDE": "87.498105", "LATITUDE": "43.908794"},
    { "ID": 49, "UUID": "48", "COUNTRY": "西班牙", "REGION": "", "OFFICE": "MarsGIS西班牙总部", "OFFICE_ENG": "MarsGIS Spain Headquarters", "ADDRESS": "", "DEPARTMENT": "MarsGIS西班牙（总部）", "DEPARTMENT_ENG": "MarsGIS (Headquarter)", "FUNCTION": "全功能", "EMPLOYEE_NUM": null, "LONGITUDE": "-3.6274722222", "LATITUDE": "40.432361111"},
    { "ID": 50, "UUID": "49", "COUNTRY": "西班牙", "REGION": "", "OFFICE": "MarsGIS西班牙加利西亚中心", "OFFICE_ENG": "MarsGIS Spain Galicia Center", "ADDRESS": "", "DEPARTMENT": "MarsGIS西班牙加利西亚", "DEPARTMENT_ENG": "MarsGIS (Delegation of Galicia)", "FUNCTION": "全功能", "EMPLOYEE_NUM": null, "LONGITUDE": "-8.4120833333", "LATITUDE": "43.365222222"},
    { "ID": 51, "UUID": "50", "COUNTRY": "西班牙", "REGION": "", "OFFICE": "MarsGIS西班牙加利西亚实验室", "OFFICE_ENG": "MarsGIS Galicia Lab", "ADDRESS": "", "DEPARTMENT": "MarsGIS西班牙加利西亚（实验室）", "DEPARTMENT_ENG": "MarsGIS (Construction Lab - Galicia)", "FUNCTION": "实验", "EMPLOYEE_NUM": null, "LONGITUDE": "-8.3837222222", "LATITUDE": "43.313694444"},
    { "ID": 52, "UUID": "51", "COUNTRY": "西班牙", "REGION": "", "OFFICE": "MarsGIS西班牙加泰罗尼亚中心", "OFFICE_ENG": "MarsGIS Catalonia Center", "ADDRESS": "", "DEPARTMENT": "MarsGIS西班牙加泰罗尼亚", "DEPARTMENT_ENG": "MarsGIS (Delegation of Catalonia)", "FUNCTION": "全功能", "EMPLOYEE_NUM": null, "LONGITUDE": "2.1442777778", "LATITUDE": "41.399861111"},
    { "ID": 53, "UUID": "52", "COUNTRY": "西班牙", "REGION": "", "OFFICE": "MarsGIS西班牙加泰罗尼亚第一实验室", "OFFICE_ENG": "MarsGIS Catalonia No.1 Lab", "ADDRESS": "", "DEPARTMENT": "MarsGIS西班牙加泰罗尼亚（实验室一）", "DEPARTMENT_ENG": "MarsGIS (Construction Lab - Catalonia)", "FUNCTION": "实验", "EMPLOYEE_NUM": null, "LONGITUDE": "2.133", "LATITUDE": "41.50475"},
    { "ID": 54, "UUID": "53", "COUNTRY": "西班牙", "REGION": "", "OFFICE": "MarsGIS西班牙加泰罗尼亚第二实验室", "OFFICE_ENG": "MarsGIS Catalonia No.2 Lab", "ADDRESS": "", "DEPARTMENT": "MarsGIS西班牙加泰罗尼亚（实验室二）", "DEPARTMENT_ENG": "MarsGIS (Construction Lab - Catalonia)", "FUNCTION": "实验", "EMPLOYEE_NUM": null, "LONGITUDE": "3.1325277778", "LATITUDE": "42.119638889"},
    { "ID": 55, "UUID": "54", "COUNTRY": "西班牙", "REGION": "", "OFFICE": "MarsGIS西班牙巴斯克第一中心", "OFFICE_ENG": "MarsGIS Vasque No.1 Center", "ADDRESS": "", "DEPARTMENT": "MarsGIS西班牙巴斯克（一分部）", "DEPARTMENT_ENG": "MarsGIS (Delegation of Vasque Country)", "FUNCTION": "全功能", "EMPLOYEE_NUM": null, "LONGITUDE": "-2.9818333333", "LATITUDE": "43.322666667"},
    { "ID": 56, "UUID": "55", "COUNTRY": "西班牙", "REGION": "", "OFFICE": "MarsGIS西班牙阿尔瓦塞特IT办公室", "OFFICE_ENG": "MarsGIS Albacete IT Office", "ADDRESS": "", "DEPARTMENT": "MarsGIS西班牙阿尔瓦塞特（IT）", "DEPARTMENT_ENG": "MarsGIS IT- Albacete", "FUNCTION": "IT项目", "EMPLOYEE_NUM": null, "LONGITUDE": "-1.8573333333", "LATITUDE": "38.977277778"},
    { "ID": 57, "UUID": "56", "COUNTRY": "西班牙", "REGION": "", "OFFICE": "MarsGIS西班牙巴绍里实验室", "OFFICE_ENG": "MarsGIS Basauri Lab", "ADDRESS": "", "DEPARTMENT": "MarsGIS西班牙巴绍里（实验室）", "DEPARTMENT_ENG": "MarsGIS (Construction Lab - Basauri)", "FUNCTION": "实验", "EMPLOYEE_NUM": null, "LONGITUDE": "-2.8775555556", "LATITUDE": "43.239555556"},
    { "ID": 58, "UUID": "57", "COUNTRY": "西班牙", "REGION": "", "OFFICE": "MarsGIS西班牙巴斯克第二中心", "OFFICE_ENG": "MarsGIS Vasque No.2 Center", "ADDRESS": "", "DEPARTMENT": "MarsGIS西班牙巴斯克（二分部）", "DEPARTMENT_ENG": "MarsGIS (Delegation of Vasque Country)", "FUNCTION": "全功能", "EMPLOYEE_NUM": null, "LONGITUDE": "-2.0194722222", "LATITUDE": "43.273472222"},
    { "ID": 59, "UUID": "58", "COUNTRY": "西班牙", "REGION": "", "OFFICE": "MarsGIS西班牙卡斯蒂利亚实验室", "OFFICE_ENG": "MarsGIS Castille Lab", "ADDRESS": "", "DEPARTMENT": "MarsGIS西班牙卡斯蒂利亚（实验室）", "DEPARTMENT_ENG": "MarsGIS (Construction Lab - Castille)", "FUNCTION": "实验", "EMPLOYEE_NUM": null, "LONGITUDE": "-5.9621944444", "LATITUDE": "42.755972222"},
    { "ID": 60, "UUID": "59", "COUNTRY": "西班牙", "REGION": "", "OFFICE": "MarsGIS西班牙卡斯蒂利亚-拉曼恰中心", "OFFICE_ENG": "MarsGIS Spain Castilla-La Mancha Center", "ADDRESS": "", "DEPARTMENT": "MarsGIS西班牙卡斯蒂利亚-拉曼恰", "DEPARTMENT_ENG": "MarsGIS (Delegation of Castilla-La Mancha)", "FUNCTION": "全功能", "EMPLOYEE_NUM": null, "LONGITUDE": "-3.9495", "LATITUDE": "39.870361111"},
    { "ID": 61, "UUID": "60", "COUNTRY": "西班牙", "REGION": "", "OFFICE": "MarsGIS西班牙安达卢西亚中心", "OFFICE_ENG": "MarsGIS Spain Andalusia Center", "ADDRESS": "", "DEPARTMENT": "MarsGIS西班牙安达卢西亚", "DEPARTMENT_ENG": "MarsGIS (Delegation of Andalusia)", "FUNCTION": "全功能", "EMPLOYEE_NUM": null, "LONGITUDE": "-5.9846666667", "LATITUDE": "37.356333333"},
    { "ID": 62, "UUID": "61", "COUNTRY": "西班牙", "REGION": "", "OFFICE": "MarsGIS西班牙加泰罗尼亚第三实验室", "OFFICE_ENG": "MarsGIS Spain Catalonia No.3 Laboratory", "ADDRESS": "", "DEPARTMENT": "MarsGIS西班牙加泰罗尼亚（实验室三）", "DEPARTMENT_ENG": "MarsGIS (Construction Lab - Catalonia)", "FUNCTION": "实验", "EMPLOYEE_NUM": null, "LONGITUDE": "1.1505277778", "LATITUDE": "41.114555556"},
    { "ID": 63, "UUID": "62", "COUNTRY": "西班牙", "REGION": "", "OFFICE": "MarsGIS西班牙卡斯蒂利亚实验室", "OFFICE_ENG": "MarsGIS Spain Castille Laboratory", "ADDRESS": "", "DEPARTMENT": "MarsGIS西班牙卡斯蒂利亚（实验室）", "DEPARTMENT_ENG": "MarsGIS (Construction Lab - Castille)", "FUNCTION": "实验", "EMPLOYEE_NUM": null, "LONGITUDE": "-4.708", "LATITUDE": "41.626194444"},
    { "ID": 64, "UUID": "63", "COUNTRY": "塞尔维亚", "REGION": "", "OFFICE": "MarsGIS塞尔维亚中心", "OFFICE_ENG": "MarsGIS Serbia Center", "ADDRESS": "", "DEPARTMENT": "MarsGIS塞尔维亚", "DEPARTMENT_ENG": "Main office for EPTISA SEE", "FUNCTION": "全功能", "EMPLOYEE_NUM": null, "LONGITUDE": "20.470083333", "LATITUDE": "44.795944444"},
    { "ID": 65, "UUID": "64", "COUNTRY": "波斯尼亚和黑塞哥维那", "REGION": "", "OFFICE": "MarsGIS波斯尼亚和黑塞哥维那中心", "OFFICE_ENG": "MarsGIS Bosnia & Herzegovina Center", "ADDRESS": "", "DEPARTMENT": "MarsGIS波斯尼亚和黑塞哥维那", "DEPARTMENT_ENG": "Bosnia & Herzegovina Office", "FUNCTION": "全功能", "EMPLOYEE_NUM": null, "LONGITUDE": "18.417361111", "LATITUDE": "43.857666667"},
    { "ID": 66, "UUID": "65", "COUNTRY": "科索沃", "REGION": "", "OFFICE": "MarsGIS科索沃中心", "OFFICE_ENG": "MarsGIS Kosovo Center", "ADDRESS": "", "DEPARTMENT": "MarsGIS科索沃", "DEPARTMENT_ENG": "Kosovo Office", "FUNCTION": "全功能", "EMPLOYEE_NUM": null, "LONGITUDE": "21.159972222", "LATITUDE": "42.667972222"},
    { "ID": 67, "UUID": "66", "COUNTRY": "马其顿", "REGION": "", "OFFICE": "MarsGIS马其顿中心", "OFFICE_ENG": "MarsGIS Macedonia Center", "ADDRESS": "", "DEPARTMENT": "MarsGIS马其顿", "DEPARTMENT_ENG": "MACEDONIA - Skopje Office", "FUNCTION": "全功能", "EMPLOYEE_NUM": null, "LONGITUDE": "21.427055556", "LATITUDE": "41.999722222"},
    { "ID": 68, "UUID": "67", "COUNTRY": "比利时", "REGION": "", "OFFICE": "MarsGIS比利时营销办公室", "OFFICE_ENG": "MarsGIS Belgium Marketing Office", "ADDRESS": "", "DEPARTMENT": "MarsGIS比利时（营销）", "DEPARTMENT_ENG": "EPTISA-Brussels Office", "FUNCTION": "营销", "EMPLOYEE_NUM": null, "LONGITUDE": "4.3701388889", "LATITUDE": "50.846138889"},
    { "ID": 69, "UUID": "68", "COUNTRY": "罗马尼亚", "REGION": "", "OFFICE": "MarsGIS罗马尼亚国家总部", "OFFICE_ENG": "MarsGIS Romania Headquarters", "ADDRESS": "", "DEPARTMENT": "MarsGIS罗马尼亚", "DEPARTMENT_ENG": "MarsGIS Romania S.R.L.", "FUNCTION": "全功能", "EMPLOYEE_NUM": null, "LONGITUDE": "26.191055556", "LATITUDE": "44.438805556"},
    { "ID": 70, "UUID": "69", "COUNTRY": "罗马尼亚", "REGION": "", "OFFICE": "MarsGIS罗马尼亚克鲁日中心", "OFFICE_ENG": "MarsGIS Romania Cluj Center", "ADDRESS": "", "DEPARTMENT": "MarsGIS罗马尼亚克鲁日", "DEPARTMENT_ENG": "Cluj - Regional Office", "FUNCTION": "全功能", "EMPLOYEE_NUM": null, "LONGITUDE": "23.611027778", "LATITUDE": "46.780555556"},
    { "ID": 71, "UUID": "70", "COUNTRY": "罗马尼亚", "REGION": "", "OFFICE": "MarsGIS罗马尼亚克拉约瓦中心", "OFFICE_ENG": "MarsGIS Romania Craiova Center", "ADDRESS": "", "DEPARTMENT": "MarsGIS罗马尼亚克拉约瓦", "DEPARTMENT_ENG": "Craiova - Regional Office", "FUNCTION": "全功能", "EMPLOYEE_NUM": null, "LONGITUDE": "23.773611111", "LATITUDE": "44.331"},
    { "ID": 72, "UUID": "71", "COUNTRY": "罗马尼亚", "REGION": "", "OFFICE": "MarsGIS罗马尼亚雅西中心", "OFFICE_ENG": "MarsGIS Romania Iasi Center", "ADDRESS": "", "DEPARTMENT": "MarsGIS罗马尼亚雅西", "DEPARTMENT_ENG": "Iasi - Regional Office", "FUNCTION": "全功能", "EMPLOYEE_NUM": null, "LONGITUDE": "27.596416667", "LATITUDE": "47.143916667"},
    { "ID": 73, "UUID": "72", "COUNTRY": "土耳其", "REGION": "", "OFFICE": "MarsGIS土耳其中心", "OFFICE_ENG": "MarsGIS Turkey Center", "ADDRESS": "", "DEPARTMENT": "MarsGIS土耳其", "DEPARTMENT_ENG": "MarsGIS Turkey", "FUNCTION": "全功能", "EMPLOYEE_NUM": null, "LONGITUDE": "32.868", "LATITUDE": "39.895666667"},
    { "ID": 74, "UUID": "73", "COUNTRY": "格鲁吉亚", "REGION": "", "OFFICE": "MarsGIS格鲁吉亚中心", "OFFICE_ENG": "MarsGIS Georgia Center", "ADDRESS": "", "DEPARTMENT": "MarsGIS格鲁吉亚", "DEPARTMENT_ENG": "Georgia Office", "FUNCTION": "全功能", "EMPLOYEE_NUM": null, "LONGITUDE": "44.769361111", "LATITUDE": "41.723638889"},
    { "ID": 75, "UUID": "74", "COUNTRY": "希腊", "REGION": "", "OFFICE": "MarsGIS希腊中心", "OFFICE_ENG": "MarsGIS Greece Center", "ADDRESS": "", "DEPARTMENT": "MarsGIS希腊", "DEPARTMENT_ENG": "Athens Office", "FUNCTION": "全功能", "EMPLOYEE_NUM": null, "LONGITUDE": "23.731611111", "LATITUDE": "37.977611111"},
    { "ID": 76, "UUID": "75", "COUNTRY": "海地", "REGION": "", "OFFICE": "MarsGIS海地中心", "OFFICE_ENG": "MarsGIS Haiti Center", "ADDRESS": "", "DEPARTMENT": "MarsGIS海地", "DEPARTMENT_ENG": "Haiti Office", "FUNCTION": "全功能", "EMPLOYEE_NUM": null, "LONGITUDE": "-72.272111111", "LATITUDE": "18.518083333"},
    { "ID": 77, "UUID": "76", "COUNTRY": "印度", "REGION": "", "OFFICE": "MarsGIS印度德里中心", "OFFICE_ENG": "MarsGIS India Delhi Center", "ADDRESS": "", "DEPARTMENT": "MarsGIS印度德里", "DEPARTMENT_ENG": "India - Delhi Office", "FUNCTION": "全功能", "EMPLOYEE_NUM": null, "LONGITUDE": "77.100277778", "LATITUDE": "28.481111111"},
    { "ID": 78, "UUID": "77", "COUNTRY": "印度", "REGION": "", "OFFICE": "MarsGIS印度加尔各答中心", "OFFICE_ENG": "MarsGIS India Kolkata Center", "ADDRESS": "", "DEPARTMENT": "MarsGIS印度加尔各答", "DEPARTMENT_ENG": "India - Kolkata Office", "FUNCTION": "全功能", "EMPLOYEE_NUM": null, "LONGITUDE": "88.435361111", "LATITUDE": "22.570638889"},
    { "ID": 79, "UUID": "78", "COUNTRY": "菲律宾", "REGION": "", "OFFICE": "MarsGIS菲律宾中心", "OFFICE_ENG": "MarsGIS Philippines Center", "ADDRESS": "", "DEPARTMENT": "MarsGIS菲律宾", "DEPARTMENT_ENG": "Philippines Office", "FUNCTION": "全功能", "EMPLOYEE_NUM": null, "LONGITUDE": "121.04366667", "LATITUDE": "14.551833333"},
    { "ID": 80, "UUID": "79", "COUNTRY": "孟加拉", "REGION": "", "OFFICE": "MarsGIS孟加拉中心", "OFFICE_ENG": "MarsGIS Bangladesh Center", "ADDRESS": "", "DEPARTMENT": "MarsGIS孟加拉", "DEPARTMENT_ENG": "MarsGIS Bangladesh", "FUNCTION": "全功能", "EMPLOYEE_NUM": null, "LONGITUDE": "90.354305556", "LATITUDE": "23.816027778"},
    { "ID": 81, "UUID": "80", "COUNTRY": "巴拿马", "REGION": "", "OFFICE": "MarsGIS巴拿马营销与项目办公室", "OFFICE_ENG": "MarsGIS Panamá Marketing and Project Office", "ADDRESS": "", "DEPARTMENT": "MarsGIS巴拿马（营销和项目）", "DEPARTMENT_ENG": "Panamá Office", "FUNCTION": "营销与项目", "EMPLOYEE_NUM": null, "LONGITUDE": "-79.521055556", "LATITUDE": "8.9761111111"},
    { "ID": 82, "UUID": "81", "COUNTRY": "乌克兰", "REGION": "", "OFFICE": "MarsGIS乌克兰中心 ", "OFFICE_ENG": "MarsGIS Ukraine Center", "ADDRESS": "", "DEPARTMENT": "MarsGIS乌克兰", "DEPARTMENT_ENG": "Ukraine Office", "FUNCTION": "全功能", "EMPLOYEE_NUM": null, "LONGITUDE": "30.519888889", "LATITUDE": "50.437861111"},
    { "ID": 83, "UUID": "82", "COUNTRY": "美国", "REGION": "", "OFFICE": "MarsGIS阿拉巴马州移动服务中心", "OFFICE_ENG": "MarsGIS阿拉巴马州移动服务中心", "ADDRESS": "阿拉巴马 36693，莫比尔，湖边大道826号，D办公楼", "DEPARTMENT": "阿拉巴马州移动服务中心 ", "DEPARTMENT_ENG": "ALABAMA Mobile Service Center", "FUNCTION": "销售与服务", "EMPLOYEE_NUM": null, "LONGITUDE": "-88.128563", "LATITUDE": "30.653627"},
    { "ID": 84, "UUID": "83", "COUNTRY": "美国", "REGION": "", "OFFICE": "MarsGIS阿拉斯加州安克雷奇服务中心", "OFFICE_ENG": "MarsGIS阿拉斯加州安克雷奇服务中心", "ADDRESS": "阿拉斯加 99517，安克雷奇，森林大道3707号，第三办公楼", "DEPARTMENT": "阿拉斯加州安克雷奇服务中心", "DEPARTMENT_ENG": "ALASKA Anchorage Service Center", "FUNCTION": "销售与服务", "EMPLOYEE_NUM": null, "LONGITUDE": "-149.921966", "LATITUDE": "61.186193"},
    { "ID": 85, "UUID": "84", "COUNTRY": "美国", "REGION": "", "OFFICE": "MarsGIS亚利桑那州凤凰实验室", "OFFICE_ENG": "MarsGIS亚利桑那州凤凰实验室", "ADDRESS": "亚利桑那 85040 ，凤凰城，东棉花中心大街4625号，189办公大楼", "DEPARTMENT": "亚利桑那州凤凰实验室", "DEPARTMENT_ENG": "ARIZONA Phoenix Lab", "FUNCTION": "实验", "EMPLOYEE_NUM": null, "LONGITUDE": "-111.98217", "LATITUDE": "33.400396"},
    { "ID": 86, "UUID": "85", "COUNTRY": "美国", "REGION": "", "OFFICE": "MarsGIS加利福利亚州欧文实验室", "OFFICE_ENG": "MarsGIS加利福利亚州欧文实验室", "ADDRESS": "加利福利亚 92614，欧文市，德里安大道17461号，100办公楼\n", "DEPARTMENT": "加利福利亚州欧文实验室", "DEPARTMENT_ENG": "CALIFORNIA Irvine Lab", "FUNCTION": "实验", "EMPLOYEE_NUM": null, "LONGITUDE": "-117.841237", "LATITUDE": "33.685728"},
    { "ID": 87, "UUID": "86", "COUNTRY": "美国", "REGION": "", "OFFICE": "MarsGIS加利福利亚州普莱森顿实验室", "OFFICE_ENG": "MarsGIS加利福利亚州普莱森顿实验室", "ADDRESS": "加利福利亚 94566 ，普莱森顿，库艾里路1220号\n", "DEPARTMENT": "加利福利亚州普莱森顿实验室", "DEPARTMENT_ENG": "CALIFORNIA Pleasanton Lab", "FUNCTION": "实验", "EMPLOYEE_NUM": null, "LONGITUDE": "-121.86627", "LATITUDE": "37.670315"},
    { "ID": 88, "UUID": "87", "COUNTRY": "美国", "REGION": "", "OFFICE": "MarsGIS加利福利亚州萨克拉门托实验室", "OFFICE_ENG": "MarsGIS加利福利亚州萨克拉门托实验室", "ADDRESS": "加利福利亚95605，西萨克拉门托，河滨公园880号", "DEPARTMENT": "加利福利亚州萨克拉门托实验室", "DEPARTMENT_ENG": "CALIFORNIA Sacramento Lab", "FUNCTION": "实验", "EMPLOYEE_NUM": null, "LONGITUDE": "-121.567839", "LATITUDE": "38.589597"},
    { "ID": 89, "UUID": "88", "COUNTRY": "美国", "REGION": "", "OFFICE": "MarsGIS科罗拉多州丹佛实验室", "OFFICE_ENG": "MarsGIS科罗拉多州丹佛实验室", "ADDRESS": "科罗拉多 80002 ，阿瓦达，蓍草街4955号", "DEPARTMENT": "科罗拉多州丹佛实验室", "DEPARTMENT_ENG": "COLORADO Denver Lab", "FUNCTION": "实验", "EMPLOYEE_NUM": null, "LONGITUDE": "-105.085483", "LATITUDE": "39.786580"},
    { "ID": 90, "UUID": "89", "COUNTRY": "美国", "REGION": "", "OFFICE": "MarsGIS康乃狄克州谢尔顿服务中心", "OFFICE_ENG": "MarsGIS康乃狄克州谢尔顿服务中心", "ADDRESS": "康乃狄克 06484 ，谢尔顿，进步大道12号", "DEPARTMENT": "康乃狄克州谢尔顿服务中心", "DEPARTMENT_ENG": "CONNECTICUT Shelton Service Center", "FUNCTION": "销售与服务", "EMPLOYEE_NUM": null, "LONGITUDE": "-73.131094", "LATITUDE": "41.272776"},
    { "ID": 91, "UUID": "90", "COUNTRY": "美国", "REGION": "", "OFFICE": "MarsGIS佛罗里达州劳德代尔堡服务中心 ", "OFFICE_ENG": "MarsGIS佛罗里达州劳德代尔堡服务中心 ", "ADDRESS": "佛罗里达33309，劳德代尔堡，西北第五大街6301号，1410A办公大楼", "DEPARTMENT": "佛罗里达州劳德代尔堡服务中心 ", "DEPARTMENT_ENG": "FLORIDA Ft. Lauderdale Service Center", "FUNCTION": "销售与服务", "EMPLOYEE_NUM": null, "LONGITUDE": "-80.151323", "LATITUDE": "26.205602"},
    { "ID": 92, "UUID": "91", "COUNTRY": "美国", "REGION": "", "OFFICE": "MarsGIS佛罗里达州杰克逊维尔服务中心", "OFFICE_ENG": "MarsGIS佛罗里达州杰克逊维尔服务中心", "ADDRESS": "佛罗里达 32256，杰克逊维尔，西大街8933号，1号办公楼", "DEPARTMENT": "佛罗里达州杰克逊维尔服务中心", "DEPARTMENT_ENG": "FLORIDA Jacksonville Service Center", "FUNCTION": "销售与服务", "EMPLOYEE_NUM": null, "LONGITUDE": "-81.557354", "LATITUDE": "30.204987"},
    { "ID": 93, "UUID": "92", "COUNTRY": "美国", "REGION": "", "OFFICE": "MarsGIS佛罗里达州奥兰多服务中心", "OFFICE_ENG": "MarsGIS佛罗里达州奥兰多服务中心", "ADDRESS": "佛罗里达32822，奥兰多，黑泽国家大道6220号，114办公楼", "DEPARTMENT": "佛罗里达州奥兰多服务中心", "DEPARTMENT_ENG": "FLORIDA Orlando Service Center", "FUNCTION": "销售与服务", "EMPLOYEE_NUM": null, "LONGITUDE": "-81.298978", "LATITUDE": "28.458143"},
    { "ID": 94, "UUID": "93", "COUNTRY": "美国", "REGION": "", "OFFICE": "MarsGIS佛罗里达州彭萨科拉实验室", "OFFICE_ENG": "MarsGIS佛罗里达州彭萨科拉实验室", "ADDRESS": "佛罗里达32514，彭萨科拉，麦克勒莫尔大道3355号", "DEPARTMENT": "佛罗里达州彭萨科拉实验室", "DEPARTMENT_ENG": "FLORIDA Pensacola Lab", "FUNCTION": "实验", "EMPLOYEE_NUM": null, "LONGITUDE": "-87.194518", "LATITUDE": "30.519616"},
    { "ID": 95, "UUID": "94", "COUNTRY": "美国", "REGION": "", "OFFICE": "MarsGIS佛罗里达州塔拉赫西服务中心", "OFFICE_ENG": "MarsGIS佛罗里达州塔拉赫西服务中心", "ADDRESS": "佛罗里达32301，塔拉赫西，工业广场大道2846号", "DEPARTMENT": "佛罗里达州塔拉赫西服务中心", "DEPARTMENT_ENG": "FLORIDA Tallahassee Service Center", "FUNCTION": "销售与服务", "EMPLOYEE_NUM": null, "LONGITUDE": "-84.230495", "LATITUDE": "30.452192"},
    { "ID": 96, "UUID": "95", "COUNTRY": "美国", "REGION": "", "OFFICE": "MarsGIS佛罗里达州坦帕市实验室", "OFFICE_ENG": "MarsGIS佛罗里达州坦帕市实验室", "ADDRESS": "佛罗里达33634，坦帕市，本杰明路6712号，100办公楼", "DEPARTMENT": "佛罗里达州坦帕市实验室", "DEPARTMENT_ENG": "FLORIDA Tampa Lab", "FUNCTION": "实验", "EMPLOYEE_NUM": null, "LONGITUDE": "-82.543708", "LATITUDE": "28.008789"},
    { "ID": 97, "UUID": "96", "COUNTRY": "美国", "REGION": "", "OFFICE": "MarsGIS乔治亚州亚特兰大服务中心", "OFFICE_ENG": "MarsGIS乔治亚州亚特兰大服务中心", "ADDRESS": "乔治亚 30093，诺克罗斯，6500麦克多诺大道，C-10办公楼", "DEPARTMENT": "乔治亚州亚特兰大服务中心", "DEPARTMENT_ENG": "GEORGIA Atlanta Service Center", "FUNCTION": "销售与服务", "EMPLOYEE_NUM": null, "LONGITUDE": "-84.217127", "LATITUDE": "33.905073"},
    { "ID": 98, "UUID": "97", "COUNTRY": "美国", "REGION": "", "OFFICE": "MarsGIS乔治亚州萨凡纳实验室", "OFFICE_ENG": "MarsGIS乔治亚州萨凡纳实验室", "ADDRESS": "乔治亚 31404，萨凡纳，拉罗什大道5102号", "DEPARTMENT": "乔治亚州萨凡纳实验室", "DEPARTMENT_ENG": "GEORGIA Savannah Lab", "FUNCTION": "实验", "EMPLOYEE_NUM": null, "LONGITUDE": "-81.066612", "LATITUDE": "32.018934"},
    { "ID": 99, "UUID": "98", "COUNTRY": "美国", "REGION": "", "OFFICE": "MarsGIS夏威夷火奴鲁鲁服务中心", "OFFICE_ENG": "MarsGIS夏威夷火奴鲁鲁服务中心", "ADDRESS": "夏威夷96818，火奴鲁鲁，马拉艾大街4429号，104办公楼", "DEPARTMENT": "夏威夷火奴鲁鲁服务中心", "DEPARTMENT_ENG": "HAWAII Honolulu Service Center", "FUNCTION": "销售与服务", "EMPLOYEE_NUM": null, "LONGITUDE": "-157.930355", "LATITUDE": "21.354442"},
    { "ID": 100, "UUID": "99", "COUNTRY": "美国", "REGION": "", "OFFICE": "MarsGIS爱荷华州锡达福尔斯实验室", "OFFICE_ENG": "MarsGIS爱荷华州锡达福尔斯实验室", "ADDRESS": "爱荷华 50613 ，锡达福尔斯，企业大道704号", "DEPARTMENT": "爱荷华州锡达福尔斯实验室", "DEPARTMENT_ENG": "IOWA Cedar Falls Lab", "FUNCTION": "实验", "EMPLOYEE_NUM": null, "LONGITUDE": "-92.453396", "LATITUDE": "42.480923"},
    { "ID": 101, "UUID": "100", "COUNTRY": "美国", "REGION": "", "OFFICE": "MarsGIS爱荷华州达文波特服务中心", "OFFICE_ENG": "MarsGIS爱荷华州达文波特服务中心", "ADDRESS": "爱荷华 52722，贝唐多尔，第八大街321号，B单元", "DEPARTMENT": "爱荷华州达文波特服务中心", "DEPARTMENT_ENG": "IOWA Davenport Service Center", "FUNCTION": "销售与服务", "EMPLOYEE_NUM": null, "LONGITUDE": "-90.521042", "LATITUDE": "41.525490"},
    { "ID": 102, "UUID": "101", "COUNTRY": "美国", "REGION": "", "OFFICE": "MarsGIS爱荷华州德梅因服务中心", "OFFICE_ENG": "MarsGIS爱荷华州德梅因服务中心", "ADDRESS": "爱荷华 50325，克莱夫，西北第86大街2175号，第三办公楼", "DEPARTMENT": "爱荷华州德梅因服务中心", "DEPARTMENT_ENG": "IOWA Des Moines Service Center", "FUNCTION": "销售与服务", "EMPLOYEE_NUM": null, "LONGITUDE": "-93.735607", "LATITUDE": "41.613167"},
    { "ID": 103, "UUID": "102", "COUNTRY": "美国", "REGION": "", "OFFICE": "MarsGIS伊利诺斯州芝加哥实验室", "OFFICE_ENG": "MarsGIS伊利诺斯州芝加哥实验室", "ADDRESS": "伊利诺斯 60484 ，邦德大街2417号，大学公园", "DEPARTMENT": "伊利诺斯州芝加哥实验室", "DEPARTMENT_ENG": "ILLINOIS Chicago Lab", "FUNCTION": "实验", "EMPLOYEE_NUM": null, "LONGITUDE": "-87.745439", "LATITUDE": "41.436061"},
    { "ID": 104, "UUID": "103", "COUNTRY": "美国", "REGION": "", "OFFICE": "MarsGIS伊利诺斯州西北芝加哥服务中心", "OFFICE_ENG": "MarsGIS伊利诺斯州西北芝加哥服务中心", "ADDRESS": "伊利诺斯 60126 ，艾姆赫斯特，北约克大街453号", "DEPARTMENT": "伊利诺斯州西北芝加哥服务中心", "DEPARTMENT_ENG": "ILLINOIS Northwest Chicago\nService Center", "FUNCTION": "销售与服务", "EMPLOYEE_NUM": null, "LONGITUDE": "-87.939339", "LATITUDE": "41.911963"},
    { "ID": 105, "UUID": "104", "COUNTRY": "美国", "REGION": "", "OFFICE": "MarsGIS印第安纳州西北印第安纳服务中心", "OFFICE_ENG": "MarsGIS印第安纳州西北印第安纳服务中心", "ADDRESS": "印第安纳 46410 ，梅里尔维尔，东第93大道1581号", "DEPARTMENT": "印第安纳州西北印第安纳服务中心", "DEPARTMENT_ENG": "INDIANA Northwest Indiana Service Center", "FUNCTION": "销售与服务", "EMPLOYEE_NUM": null, "LONGITUDE": "-87.317708", "LATITUDE": "41.448769"},
    { "ID": 106, "UUID": "105", "COUNTRY": "美国", "REGION": "", "OFFICE": "MarsGIS路易斯安那州巴吞鲁日服务中心", "OFFICE_ENG": "MarsGIS路易斯安那州巴吞鲁日服务中心", "ADDRESS": "路易斯安那 70809，巴吞鲁日，福利大道6113号", "DEPARTMENT": "路易斯安那州巴吞鲁日服务中心", "DEPARTMENT_ENG": "LOUISIANA Baton Rouge Service Center", "FUNCTION": "销售与服务", "EMPLOYEE_NUM": null, "LONGITUDE": "-91.051044", "LATITUDE": "30.390345"},
    { "ID": 107, "UUID": "106", "COUNTRY": "美国", "REGION": "", "OFFICE": "MarsGIS马萨诸塞州波士顿服务中心", "OFFICE_ENG": "MarsGIS马萨诸塞州波士顿服务中心", "ADDRESS": "马萨诸塞 02451 ，沃尔瑟姆，熊山路240号，104办公楼", "DEPARTMENT": "马萨诸塞州波士顿服务中心", "DEPARTMENT_ENG": "MASSACHUSETTS Boston Service Center", "FUNCTION": "销售与服务", "EMPLOYEE_NUM": null, "LONGITUDE": "-71.264744", "LATITUDE": "42.384597"},
    { "ID": 108, "UUID": "107", "COUNTRY": "美国", "REGION": "", "OFFICE": "MarsGIS马萨诸塞州韦斯特菲尔德服务中心", "OFFICE_ENG": "MarsGIS马萨诸塞州韦斯特菲尔德服务中心", "ADDRESS": "马萨诸塞 01085 ，韦斯特菲尔德，南安普敦路501号", "DEPARTMENT": "马萨诸塞州韦斯特菲尔德服务中心", "DEPARTMENT_ENG": "MASSACHUSETTS Westfield Service Center", "FUNCTION": "销售与服务", "EMPLOYEE_NUM": null, "LONGITUDE": "-72.725454", "LATITUDE": "42.156571"},
    { "ID": 109, "UUID": "108", "COUNTRY": "美国", "REGION": "", "OFFICE": "MarsGIS马里兰州巴尔的摩服务中心", "OFFICE_ENG": "MarsGIS马里兰州巴尔的摩服务中心", "ADDRESS": "马里兰 21076，汉诺威，康涅尼大道7526号，F办公楼", "DEPARTMENT": "马里兰州巴尔的摩服务中心", "DEPARTMENT_ENG": "MARYLAND Baltimore Service Center", "FUNCTION": "销售与服务", "EMPLOYEE_NUM": null, "LONGITUDE": "-76.681903", "LATITUDE": "39.156297"},
    { "ID": 110, "UUID": "109", "COUNTRY": "美国", "REGION": "", "OFFICE": "MarsGIS密歇根州密歇根服务中心", "OFFICE_ENG": "MarsGIS密歇根州密歇根服务中心", "ADDRESS": "密歇根48116，布莱顿，塞特星大道10448号，200办公楼", "DEPARTMENT": "密歇根州密歇根服务中心", "DEPARTMENT_ENG": "MICHIGAN Michigan Service Center", "FUNCTION": "销售与服务", "EMPLOYEE_NUM": null, "LONGITUDE": "-83.747985", "LATITUDE": "42.520283"},
    { "ID": 111, "UUID": "110", "COUNTRY": "美国", "REGION": "", "OFFICE": "MarsGIS迷尼苏达州迷尼苏达服务中心 ", "OFFICE_ENG": "MarsGIS迷尼苏达州迷尼苏达服务中心 ", "ADDRESS": "迷尼苏达州55426，圣路易斯公园大街，西第27大街7600号，236单元", "DEPARTMENT": "迷尼苏达州迷尼苏达服务中心 ", "DEPARTMENT_ENG": "MINNESOTA Minneapolis Service Center", "FUNCTION": "销售与服务", "EMPLOYEE_NUM": null, "LONGITUDE": "-93.376419", "LATITUDE": "44.955289"},
    { "ID": 112, "UUID": "111", "COUNTRY": "美国", "REGION": "", "OFFICE": "MarsGIS密苏里州堪萨斯城服务中心", "OFFICE_ENG": "MarsGIS密苏里州堪萨斯城服务中心", "ADDRESS": "密苏里64015，蓝泉城，西北第39大街601号", "DEPARTMENT": "密苏里州堪萨斯城服务中心", "DEPARTMENT_ENG": "MISSOURI Kansas City Service Center", "FUNCTION": "销售与服务", "EMPLOYEE_NUM": null, "LONGITUDE": "-94.309496", "LATITUDE": "39.024930"},
    { "ID": 113, "UUID": "112", "COUNTRY": "美国", "REGION": "", "OFFICE": "MarsGIS密苏里州圣路易斯实验室", "OFFICE_ENG": "MarsGIS密苏里州圣路易斯实验室", "ADDRESS": "密苏里 63045，地球城，骑手小道北13715号", "DEPARTMENT": "密苏里州圣路易斯实验室", "DEPARTMENT_ENG": "MISSOURI St. Louis Lab", "FUNCTION": "实验", "EMPLOYEE_NUM": null, "LONGITUDE": "-90.461468", "LATITUDE": "38.776210"},
    { "ID": 114, "UUID": "113", "COUNTRY": "美国", "REGION": "", "OFFICE": "MarsGIS北卡罗来纳州夏洛特服务中心", "OFFICE_ENG": "MarsGIS北卡罗来纳州夏洛特服务中心", "ADDRESS": "北卡罗来纳28208，夏洛特区，皇后市大街 2838-B", "DEPARTMENT": "北卡罗来纳州夏洛特服务中心", "DEPARTMENT_ENG": "NORTH CAROLINA Charlotte Service Center", "FUNCTION": "销售与服务", "EMPLOYEE_NUM": null, "LONGITUDE": "-80.914644", "LATITUDE": "35.239848"},
    { "ID": 115, "UUID": "114", "COUNTRY": "美国", "REGION": "", "OFFICE": "MarsGIS新泽西州爱迪生实验室", "OFFICE_ENG": "MarsGIS新泽西州爱迪生实验室", "ADDRESS": "新泽西08817，爱迪生，新得罕大道777号", "DEPARTMENT": "新泽西州爱迪生实验室", "DEPARTMENT_ENG": "NEW JERSEY Edison Lab", "FUNCTION": "实验", "EMPLOYEE_NUM": null, "LONGITUDE": "-74.384868", "LATITUDE": "40.540345"},
    { "ID": 116, "UUID": "115", "COUNTRY": "美国", "REGION": "", "OFFICE": "MarsGIS新泽西州南泽西服务中心", "OFFICE_ENG": "MarsGIS新泽西州南泽西服务中心", "ADDRESS": "新泽西 08053，马尔顿，林肯大道东3000号，A办公楼", "DEPARTMENT": "新泽西州南泽西服务中心", "DEPARTMENT_ENG": "NEW JERSEY South Jersey Service Center", "FUNCTION": "销售与服务", "EMPLOYEE_NUM": null, "LONGITUDE": "-74.937833", "LATITUDE": "39.911511"},
    { "ID": 117, "UUID": "116", "COUNTRY": "美国", "REGION": "", "OFFICE": "MarsGIS内华达州拉斯维加斯服务中心", "OFFICE_ENG": "MarsGIS内华达州拉斯维加斯服务中心", "ADDRESS": "内华达89014，亨德森，山景路6100号，160", "DEPARTMENT": "内华达州拉斯维加斯服务中心", "DEPARTMENT_ENG": "NEVADA Las Vegas Service Center", "FUNCTION": "销售与服务", "EMPLOYEE_NUM": null, "LONGITUDE": "-115.072669", "LATITUDE": "36.077613"},
    { "ID": 118, "UUID": "117", "COUNTRY": "美国", "REGION": "", "OFFICE": "MarsGIS纽约阿尔巴尼服务中心", "OFFICE_ENG": "MarsGIS纽约阿尔巴尼服务中心", "ADDRESS": "纽约12205，阿尔巴尼，卡夫大道25号", "DEPARTMENT": "纽约阿尔巴尼服务中心", "DEPARTMENT_ENG": "NEW YORK Albany Service Center", "FUNCTION": "销售与服务", "EMPLOYEE_NUM": null, "LONGITUDE": "-73.808026", "LATITUDE": "42.691811"},
    { "ID": 119, "UUID": "118", "COUNTRY": "美国", "REGION": "", "OFFICE": "MarsGIS纽约水牛城实验室", "OFFICE_ENG": "MarsGIS纽约水牛城实验室", "ADDRESS": "纽约14228，阿默斯特，黑泽尔伍德大道 10号", "DEPARTMENT": "纽约水牛城实验室", "DEPARTMENT_ENG": "NEW YORK Buffalo Lab", "FUNCTION": "实验", "EMPLOYEE_NUM": null, "LONGITUDE": "-78.814483", "LATITUDE": "43.029430"},
    { "ID": 120, "UUID": "119", "COUNTRY": "美国", "REGION": "", "OFFICE": "MarsGIS纽约市服务中心 ", "OFFICE_ENG": "MarsGIS纽约服务中心 ", "ADDRESS": "纽约11101，长岛市，第32广场47-32号，1141办公楼", "DEPARTMENT": "纽约市服务中心 ", "DEPARTMENT_ENG": "New York City Service Center", "FUNCTION": "销售与服务", "EMPLOYEE_NUM": null, "LONGITUDE": "-73.933769", "LATITUDE": "40.741369"},
    { "ID": 121, "UUID": "120", "COUNTRY": "美国", "REGION": "", "OFFICE": "MarsGIS纽约锡拉丘兹服务中心", "OFFICE_ENG": "MarsGIS纽约锡拉丘兹服务中心", "ADDRESS": "纽约13211，锡拉丘兹，老板路118号", "DEPARTMENT": "纽约锡拉丘兹服务中心", "DEPARTMENT_ENG": "NEW YORK Syracuse Service Center", "FUNCTION": "销售与服务", "EMPLOYEE_NUM": null, "LONGITUDE": "-76.091478", "LATITUDE": "43.096358"},
    { "ID": 122, "UUID": "121", "COUNTRY": "美国", "REGION": "", "OFFICE": "MarsGIS俄亥俄州剑桥服务中心", "OFFICE_ENG": "MarsGIS俄亥俄州剑桥服务中心", "ADDRESS": "俄亥俄 43725-3012，剑桥，牛津大道1340号", "DEPARTMENT": "俄亥俄州剑桥服务中心", "DEPARTMENT_ENG": "OHIO Cambridge Service Center", "FUNCTION": "销售与服务", "EMPLOYEE_NUM": null, "LONGITUDE": "-81.579901", "LATITUDE": "40.010361"},
    { "ID": 123, "UUID": "122", "COUNTRY": "美国", "REGION": "", "OFFICE": "MarsGIS俄亥俄州北坎顿实验室", "OFFICE_ENG": "MarsGIS俄亥俄州北坎顿实验室", "ADDRESS": "俄亥俄44720，北坎顿，莎佛大街西北4101号", "DEPARTMENT": "俄亥俄州北坎顿实验室", "DEPARTMENT_ENG": "OHIO Canton Lab", "FUNCTION": "实验", "EMPLOYEE_NUM": null, "LONGITUDE": "-81.421830", "LATITUDE": "40.898137"},
    { "ID": 124, "UUID": "123", "COUNTRY": "美国", "REGION": "", "OFFICE": "MarsGIS俄亥俄州辛辛那提服务中心", "OFFICE_ENG": "MarsGIS俄亥俄州辛辛那提服务中心", "ADDRESS": "俄亥俄 45241，辛辛那提，雷丁大道11416号", "DEPARTMENT": "俄亥俄州辛辛那提服务中心", "DEPARTMENT_ENG": "OHIO Cincinnati Service Center", "FUNCTION": "销售与服务", "EMPLOYEE_NUM": null, "LONGITUDE": "-84.411100", "LATITUDE": "39.277018"},
    { "ID": 125, "UUID": "124", "COUNTRY": "美国", "REGION": "", "OFFICE": "MarsGIS俄亥俄州哥伦布服务中心", "OFFICE_ENG": "MarsGIS俄亥俄州哥伦布服务中心", "ADDRESS": "俄亥俄43229，哥伦布，杰克瑞恩大道961号", "DEPARTMENT": "俄亥俄州哥伦布服务中心", "DEPARTMENT_ENG": "OHIO Columbus Service Center", "FUNCTION": "销售与服务", "EMPLOYEE_NUM": null, "LONGITUDE": "-82.990566", "LATITUDE": "40.100919"},
    { "ID": 126, "UUID": "125", "COUNTRY": "美国", "REGION": "", "OFFICE": "MarsGIS俄亥俄州代顿服务中心", "OFFICE_ENG": "MarsGIS俄亥俄州代顿服务中心", "ADDRESS": "俄亥俄 45440 ，代顿，长城环路4738号", "DEPARTMENT": "俄亥俄州代顿服务中心", "DEPARTMENT_ENG": "OHIO Dayton Service Center", "FUNCTION": "销售与服务", "EMPLOYEE_NUM": null, "LONGITUDE": "-84.133967", "LATITUDE": "39.675301"},
    { "ID": 127, "UUID": "126", "COUNTRY": "美国", "REGION": "", "OFFICE": "MarsGIS俄勒冈州波特兰服务中心", "OFFICE_ENG": "MarsGIS俄勒冈州波特兰服务中心", "ADDRESS": "俄勒冈97008 ，比佛顿云雨大道9405号", "DEPARTMENT": "俄勒冈州波特兰服务中心", "DEPARTMENT_ENG": "OREGON Portland Service Center", "FUNCTION": "销售与服务", "EMPLOYEE_NUM": null, "LONGITUDE": "-122.789098", "LATITUDE": "45.452333"},
    { "ID": 128, "UUID": "127", "COUNTRY": "美国", "REGION": "", "OFFICE": "MarsGIS宾西法尼亚州普鲁士王服务中心 ", "OFFICE_ENG": "MarsGIS宾西法尼亚州普鲁士王服务中心 ", "ADDRESS": "宾西法尼亚19406，普鲁士王，西第九大道1008号", "DEPARTMENT": "宾西法尼亚州普鲁士王服务中心 ", "DEPARTMENT_ENG": "PENNSYLVANIA King of Prussia Service Center", "FUNCTION": "销售与服务", "EMPLOYEE_NUM": null, "LONGITUDE": "-75.413843", "LATITUDE": "40.102086"},
    { "ID": 129, "UUID": "128", "COUNTRY": "美国", "REGION": "", "OFFICE": "MarsGIS宾西法尼亚州匹兹堡实验室", "OFFICE_ENG": "MarsGIS宾西法尼亚州匹兹堡实验室", "ADDRESS": "宾西法尼亚 15238，匹兹堡，阿尔法大道301号", "DEPARTMENT": "宾西法尼亚州匹兹堡实验室", "DEPARTMENT_ENG": "PENNSYLVANIA Pittsburgh Lab", "FUNCTION": "实验", "EMPLOYEE_NUM": null, "LONGITUDE": "-79.868450", "LATITUDE": "40.494266"},
    { "ID": 130, "UUID": "129", "COUNTRY": "美国", "REGION": "", "OFFICE": "MarsGIS南卡罗来纳州卡尔斯顿服务中心", "OFFICE_ENG": "MarsGIS南卡罗来纳州卡尔斯顿服务中心", "ADDRESS": "南卡罗来纳29464，圣普莱曾特，北点街1436-A", "DEPARTMENT": "南卡罗来纳州卡尔斯顿服务中心", "DEPARTMENT_ENG": "SOUTH CAROLINA Charleston Service Center", "FUNCTION": "销售与服务", "EMPLOYEE_NUM": null, "LONGITUDE": "-79.852815", "LATITUDE": "32.791993"},
    { "ID": 131, "UUID": "130", "COUNTRY": "美国", "REGION": "", "OFFICE": "MarsGIS田纳西州诺克斯维尔实验室", "OFFICE_ENG": "MarsGIS田纳西州诺克斯维尔实验室", "ADDRESS": "田纳西37921 ，诺克斯维尔，米德尔布鲁克路5815号", "DEPARTMENT": "田纳西州诺克斯维尔实验室", "DEPARTMENT_ENG": "TENNESSEE Knoxville Lab", "FUNCTION": "实验", "EMPLOYEE_NUM": null, "LONGITUDE": "-84.011379", "LATITUDE": "35.954350"},
    { "ID": 132, "UUID": "131", "COUNTRY": "美国", "REGION": "", "OFFICE": "MarsGIS田纳西州纳什维尔实验室", "OFFICE_ENG": "MarsGIS田纳西州纳什维尔实验室", "ADDRESS": "田纳西37204 ，那什维尔，福斯特克莱顿大道2960", "DEPARTMENT": "田纳西州纳什维尔实验室", "DEPARTMENT_ENG": "TENNESSEE Nashville Lab", "FUNCTION": "实验", "EMPLOYEE_NUM": null, "LONGITUDE": "-86.753579", "LATITUDE": "36.106759"},
    { "ID": 133, "UUID": "132", "COUNTRY": "美国", "REGION": "", "OFFICE": "MarsGIS德克萨斯州博蒙特服务中心", "OFFICE_ENG": "MarsGIS德克萨斯州博蒙特服务中心", "ADDRESS": "德克萨斯 77040，休斯顿，罗斯韦大街6310号", "DEPARTMENT": "德克萨斯州博蒙特服务中心", "DEPARTMENT_ENG": "TEXAS Beaumont Service Center", "FUNCTION": "销售与服务", "EMPLOYEE_NUM": null, "LONGITUDE": "-95.529487", "LATITUDE": "29.859484"},
    { "ID": 134, "UUID": "133", "COUNTRY": "美国", "REGION": "", "OFFICE": "MarsGIS德克萨斯州科珀斯克实验室", "OFFICE_ENG": "MarsGIS德克萨斯州科珀斯克实验室", "ADDRESS": "德克萨斯78408，科珀斯克，北帕德雷岛大街1733号", "DEPARTMENT": "德克萨斯州科珀斯克实验室", "DEPARTMENT_ENG": "TEXAS Corpus Christi Lab", "FUNCTION": "实验", "EMPLOYEE_NUM": null, "LONGITUDE": "-97.469110", "LATITUDE": "27.792650"},
    { "ID": 135, "UUID": "134", "COUNTRY": "美国", "REGION": "", "OFFICE": "MarsGIS德克萨斯州达拉斯/沃斯堡服务中心", "OFFICE_ENG": "MarsGIS德克萨斯州达拉斯/沃斯堡服务中心", "ADDRESS": "德克萨斯75006，卡罗顿，中校大街 3226", "DEPARTMENT": "德克萨斯州达拉斯/沃斯堡服务中心", "DEPARTMENT_ENG": "TEXAS Dallas / Fort Worth Service\nCenter", "FUNCTION": "销售与服务", "EMPLOYEE_NUM": null, "LONGITUDE": "-96.844799", "LATITUDE": "32.976517"},
    { "ID": 136, "UUID": "135", "COUNTRY": "美国", "REGION": "", "OFFICE": "MarsGIS德克萨斯州休斯顿实验室", "OFFICE_ENG": "MarsGIS德克萨斯州休斯顿实验室", "ADDRESS": "德克萨斯77040，休斯顿，罗斯韦大街6310号", "DEPARTMENT": "德克萨斯州休斯顿实验室", "DEPARTMENT_ENG": "TEXAS Houston Lab", "FUNCTION": "实验", "EMPLOYEE_NUM": null, "LONGITUDE": "-95.529487", "LATITUDE": "29.859484"},
    { "ID": 137, "UUID": "136", "COUNTRY": "美国", "REGION": "", "OFFICE": "MarsGIS德克萨斯州圣安东尼奥服务中心", "OFFICE_ENG": "MarsGIS德克萨斯州圣安东尼奥服务中心", "ADDRESS": "德克萨斯78216，圣安东尼奥，西北环410，1951号，11号楼11门\n", "DEPARTMENT": "德克萨斯州圣安东尼奥服务中心", "DEPARTMENT_ENG": "TEXAS San Antonio Service Center", "FUNCTION": "销售与服务", "EMPLOYEE_NUM": null, "LONGITUDE": "-98.523421", "LATITUDE": "29.519019"},
    { "ID": 138, "UUID": "137", "COUNTRY": "美国", "REGION": "", "OFFICE": "MarsGIS佛蒙特州伯林顿实验室", "OFFICE_ENG": "MarsGIS佛蒙特州伯林顿实验室", "ADDRESS": "佛蒙特05403，圣伯林顿，社区大道30号，11办公楼", "DEPARTMENT": "佛蒙特州伯林顿实验室", "DEPARTMENT_ENG": "VERMONT Burlington Lab", "FUNCTION": "实验", "EMPLOYEE_NUM": null, "LONGITUDE": "-73.144675", "LATITUDE": "44.449588"},
    { "ID": 139, "UUID": "138", "COUNTRY": "美国", "REGION": "", "OFFICE": "MarsGIS华盛顿州北西雅图服务中心", "OFFICE_ENG": "MarsGIS华盛顿州北西雅图服务中心", "ADDRESS": "华盛顿98011-8200 ，博瑟尔，北溪大道19515号，100办公楼", "DEPARTMENT": "华盛顿州北西雅图服务中心", "DEPARTMENT_ENG": "WASHINGTON North Seattle Service Center", "FUNCTION": "销售与服务", "EMPLOYEE_NUM": null, "LONGITUDE": "-122.180205", "LATITUDE": "47.774603"},
    { "ID": 140, "UUID": "139", "COUNTRY": "美国", "REGION": "", "OFFICE": "MarsGIS华盛顿州里奇兰实验室", "OFFICE_ENG": "MarsGIS华盛顿州里奇兰实验室", "ADDRESS": "华盛顿 99354，里奇兰，乔治华盛顿大街2800号", "DEPARTMENT": "华盛顿州里奇兰实验室", "DEPARTMENT_ENG": "WASHINGTON Richland Lab", "FUNCTION": "实验", "EMPLOYEE_NUM": null, "LONGITUDE": "-119.271852", "LATITUDE": "46.334479"},
    { "ID": 141, "UUID": "140", "COUNTRY": "美国", "REGION": "", "OFFICE": "MarsGIS华盛顿州西雅图实验室", "OFFICE_ENG": "MarsGIS华盛顿州西雅图实验室", "ADDRESS": "华盛顿98424，塔科马港市，第八圣东大街5755号", "DEPARTMENT": "华盛顿州西雅图实验室", "DEPARTMENT_ENG": "WASHINGTON Seattle Lab", "FUNCTION": "实验", "EMPLOYEE_NUM": null, "LONGITUDE": "-122.351148", "LATITUDE": "47.250508"},
    { "ID": 142, "UUID": "141", "COUNTRY": "美国", "REGION": "", "OFFICE": "MarsGIS华盛顿州斯波坎实验室", "OFFICE_ENG": "MarsGIS华盛顿州斯波坎实验室", "ADDRESS": "华盛顿 99206，斯波坎瓦利，东第一大道11922号", "DEPARTMENT": "华盛顿州斯波坎实验室", "DEPARTMENT_ENG": "WASHINGTON Spokane Lab", "FUNCTION": "实验", "EMPLOYEE_NUM": null, "LONGITUDE": "-122.351148", "LATITUDE": "47.250270"},
    { "ID": 143, "UUID": "142", "COUNTRY": "美国", "REGION": "", "OFFICE": "MarsGIS亚洲泰国曼谷实验室", "OFFICE_ENG": "MarsGIS亚洲泰国曼谷实验室", "ADDRESS": "10400 泰国，曼谷Dindaeng,Asoke-Dindaeng大道731号PM塔楼19层", "DEPARTMENT": "亚洲泰国曼谷实验室", "DEPARTMENT_ENG": "ASIA Bangkok, Thailand Lab", "FUNCTION": "实验", "EMPLOYEE_NUM": null, "LONGITUDE": "100.531753", "LATITUDE": "13.727819"},
    { "ID": 144, "UUID": "143", "COUNTRY": "美国", "REGION": "", "OFFICE": "MarsGIS亚利桑那州北凤凰室内空气质量商业检测实验室", "OFFICE_ENG": "MarsGIS亚利桑那州EMLab P&K 北凤凰", "ADDRESS": "亚利桑那 85027，凤凰城，西克努森大道1501号", "DEPARTMENT": "亚利桑那州北凤凰室内空气质量商业检测实验室", "DEPARTMENT_ENG": "ARIZONA EMLab P&K North Phoenix", "FUNCTION": "实验", "EMPLOYEE_NUM": null, "LONGITUDE": "-112.092189", "LATITUDE": "33.693410"},
    { "ID": 145, "UUID": "144", "COUNTRY": "美国", "REGION": "", "OFFICE": "MarsGIS加利福利亚州格兰戴尔室内空气质量商业检测实验室", "OFFICE_ENG": "MarsGIS加利福利亚州EMLab P&K 格兰戴尔", "ADDRESS": "加利福利亚91202，格兰岱尔，北中央大街1010号，390办公楼", "DEPARTMENT": "加利福利亚州格兰戴尔室内空气质量商业检测实验室", "DEPARTMENT_ENG": "ARIZONA EMLab P&K Glendale\n", "FUNCTION": "实验", "EMPLOYEE_NUM": null, "LONGITUDE": "-118.256895", "LATITUDE": "34.160016"},
    { "ID": 146, "UUID": "145", "COUNTRY": "美国", "REGION": "", "OFFICE": "MarsGIS加利福利亚州欧文室内空气质量商业检测实验室", "OFFICE_ENG": "MarsGIS加利福利亚州EMLab P&K 欧文", "ADDRESS": "加利福利亚92614，欧文，德里安17461号，100办公楼", "DEPARTMENT": "加利福利亚州欧文室内空气质量商业检测实验室", "DEPARTMENT_ENG": "ARIZONA  EMLab P&K Irvine", "FUNCTION": "实验", "EMPLOYEE_NUM": null, "LONGITUDE": "-117.793652", "LATITUDE": "33.713973"},
    { "ID": 147, "UUID": "146", "COUNTRY": "美国", "REGION": "", "OFFICE": "MarsGIS加利福利亚州南圣弗朗西斯科室内空气质量商业检测实验室", "OFFICE_ENG": "MarsGIS加利福利亚州EMLab P&K 南圣弗朗西斯科", "ADDRESS": "加利福利亚 94080 ，南圣弗朗西斯科，岸线草场6000号，205办公楼", "DEPARTMENT": "加利福利亚州南圣弗朗西斯科室内空气质量商业检测实验室", "DEPARTMENT_ENG": "ARIZONA  EMLab P&K South San Francisco", "FUNCTION": "实验", "EMPLOYEE_NUM": null, "LONGITUDE": "-122.390097", "LATITUDE": "37.670058"},
    { "ID": 148, "UUID": "147", "COUNTRY": "美国", "REGION": "", "OFFICE": "MarsGIS加利福利亚州圣地亚哥室内空气质量商业检测实验室", "OFFICE_ENG": "MarsGIS加利福利亚州EMLab P&K 圣地亚哥", "ADDRESS": "加利福利亚 92111，圣地亚哥，克莱蒙梅沙大街8304号，103办公楼", "DEPARTMENT": "加利福利亚州圣地亚哥室内空气质量商业检测实验室", "DEPARTMENT_ENG": "ARIZONA  EMLab P&K San Diego", "FUNCTION": "实验", "EMPLOYEE_NUM": null, "LONGITUDE": "-117.906769", "LATITUDE": "34.014089"},
    { "ID": 149, "UUID": "148", "COUNTRY": "美国", "REGION": "", "OFFICE": "MarsGIS加利福利亚州萨克拉门托室内空气质量商业检测实验室", "OFFICE_ENG": "MarsGIS加利福利亚州EMLab P&K 萨克拉门托", "ADDRESS": "加利福利亚 95605，西萨克拉门托，河畔公园路880号", "DEPARTMENT": "加利福利亚州萨克拉门托室内空气质量商业检测实验室", "DEPARTMENT_ENG": "ARIZONA EMLab P&K Sacramento", "FUNCTION": "实验", "EMPLOYEE_NUM": null, "LONGITUDE": "-121.567961", "LATITUDE": "38.589349"},
    { "ID": 150, "UUID": "149", "COUNTRY": "美国", "REGION": "", "OFFICE": "MarsGIS科罗拉多州丹佛室内空气质量商业检测实验室", "OFFICE_ENG": "MarsGIS科罗拉多州EMLab P&K 丹佛", "ADDRESS": "科罗拉多 80002，阿瓦达，蓍草街4955号", "DEPARTMENT": "科罗拉多州丹佛室内空气质量商业检测实验室", "DEPARTMENT_ENG": "COLORADO EMLab P&K Denver", "FUNCTION": "实验", "EMPLOYEE_NUM": null, "LONGITUDE": "-105.085483", "LATITUDE": "39.786580"},
    { "ID": 151, "UUID": "150", "COUNTRY": "美国", "REGION": "", "OFFICE": "MarsGIS佛罗里达州劳德代尔堡室内空气质量商业检测实验室", "OFFICE_ENG": "MarsGIS佛罗里达州EMLab – P&K劳德代尔堡", "ADDRESS": "佛罗里达33309，劳德代尔堡，西北大街6301号，1410办公楼", "DEPARTMENT": "佛罗里达州劳德代尔堡室内空气质量商业检测实验室", "DEPARTMENT_ENG": "FLORIDA EMLab – P&K Ft. Lauderdale", "FUNCTION": "实验", "EMPLOYEE_NUM": null, "LONGITUDE": "-80.151323", "LATITUDE": "26.205602"},
    { "ID": 152, "UUID": "151", "COUNTRY": "美国", "REGION": "", "OFFICE": "MarsGIS伊利诺伊州芝加哥室内空气质量商业检测实验室", "OFFICE_ENG": "MarsGIS伊利诺伊州EMLab – P&K芝加哥", "ADDRESS": "伊利诺伊60563，内伯威尔市，西德尔菲路1815号，800办公楼", "DEPARTMENT": "伊利诺伊州芝加哥室内空气质量商业检测实验室", "DEPARTMENT_ENG": "ILLINOIS EMLab – P&K Chicago", "FUNCTION": "实验", "EMPLOYEE_NUM": null, "LONGITUDE": "-88.208355", "LATITUDE": "41.801156"},
    { "ID": 153, "UUID": "152", "COUNTRY": "美国", "REGION": "", "OFFICE": "MarsGIS乔治亚州亚特兰大室内空气质量商业检测实验室", "OFFICE_ENG": "MarsGIS乔治亚州EMLab P&K亚特兰大", "ADDRESS": "乔治亚 30093，诺克罗斯，麦克多诺大道6500号，C-11办公楼", "DEPARTMENT": "乔治亚州亚特兰大室内空气质量商业检测实验室", "DEPARTMENT_ENG": "GEORGIA EMLab P&K Atlanta", "FUNCTION": "实验", "EMPLOYEE_NUM": null, "LONGITUDE": "-84.217708", "LATITUDE": "33.905311"},
    { "ID": 154, "UUID": "153", "COUNTRY": "美国", "REGION": "", "OFFICE": "MarsGIS内华达州拉斯维加斯室内空气质量商业检测实验室", "OFFICE_ENG": "MarsGIS内华达州EMLab P&K拉斯维加斯", "ADDRESS": "内华达89014，亨德森，山景#160，6100", "DEPARTMENT": "内华达州拉斯维加斯室内空气质量商业检测实验室", "DEPARTMENT_ENG": "NEVADA EMLab P&K Las Vegas", "FUNCTION": "实验", "EMPLOYEE_NUM": null, "LONGITUDE": "-115.072669", "LATITUDE": "36.077613"},
    { "ID": 155, "UUID": "154", "COUNTRY": "美国", "REGION": "", "OFFICE": "MarsGIS新泽西州新泽西室内空气质量商业检测实验室", "OFFICE_ENG": "MarsGIS新泽西州EMLab P&K新泽西", "ADDRESS": "新泽西08053，马尔顿，林肯大道东3000号，A办公楼", "DEPARTMENT": "新泽西州新泽西室内空气质量商业检测实验室", "DEPARTMENT_ENG": "NEW JERSEY EMLab P&K New Jerse", "FUNCTION": "实验", "EMPLOYEE_NUM": null, "LONGITUDE": "-74.937198", "LATITUDE": "39.912076"},
    { "ID": 156, "UUID": "155", "COUNTRY": "美国", "REGION": "", "OFFICE": "MarsGIS德克萨斯州休斯顿室内空气质量商业检测实验室", "OFFICE_ENG": "MarsGIS德克萨斯州EMLab P&K休斯顿", "ADDRESS": "德克萨斯77040 ，休斯顿罗斯韦街6310号", "DEPARTMENT": "德克萨斯州休斯顿室内空气质量商业检测实验室", "DEPARTMENT_ENG": "TEXAS EMLab P&K Houston", "FUNCTION": "实验", "EMPLOYEE_NUM": null, "LONGITUDE": "-95.529487", "LATITUDE": "29.859484"},
    { "ID": 157, "UUID": "156", "COUNTRY": "美国", "REGION": "", "OFFICE": "MarsGIS维吉尼亚州维吉尼亚室内空气质量商业检测实验室", "OFFICE_ENG": "MarsGIS维吉尼亚州EMLab P&K维吉尼亚", "ADDRESS": "维吉尼亚22030，费尔法克斯，老李高速路3929号，91C办公楼", "DEPARTMENT": "维吉尼亚州维吉尼亚室内空气质量商业检测实验室", "DEPARTMENT_ENG": "VIRGINIA EMLab P&K Virginia", "FUNCTION": "实验", "EMPLOYEE_NUM": null, "LONGITUDE": "-77.300959", "LATITUDE": "38.846974"},
    { "ID": 158, "UUID": "157", "COUNTRY": "美国", "REGION": "", "OFFICE": "MarsGIS华盛顿州北西雅图室内空气质量商业检测实验室", "OFFICE_ENG": "MarsGIS华盛顿州EMLab P&K北西雅图", "ADDRESS": "华盛顿98011，博瑟尔，北溪大道北19515号，100办公楼", "DEPARTMENT": "华盛顿州北西雅图室内空气质量商业检测实验室", "DEPARTMENT_ENG": "WASHINGTONE MLab P&K North Seattle", "FUNCTION": "实验", "EMPLOYEE_NUM": null, "LONGITUDE": "-122.185582", "LATITUDE": "47.769557"},
    { "ID": 159, "UUID": "158", "COUNTRY": "美国", "REGION": "", "OFFICE": "MarsGIS路易斯安娜州巴吞鲁日源排放检测公司", "OFFICE_ENG": "MarsGIS路易斯安娜州METCO巴吞鲁日", "ADDRESS": "路易斯安娜 70809，巴吞鲁日，卡斯蒂利亚大道9141号", "DEPARTMENT": "路易斯安娜州巴吞鲁日源排放检测公司", "DEPARTMENT_ENG": "LOUISIANA METCO Baton Rouge", "FUNCTION": "检测", "EMPLOYEE_NUM": null, "LONGITUDE": "-91.063402", "LATITUDE": "30.391121"},
    { "ID": 160, "UUID": "159", "COUNTRY": "美国", "REGION": "", "OFFICE": "MarsGIS德克萨斯州达拉斯源排放检测公司", "OFFICE_ENG": "MarsGIS德克萨斯州METCO达拉斯", "ADDRESS": "德克萨斯75006 ，卡罗敦，克蒙德大道3226号", "DEPARTMENT": "德克萨斯州达拉斯源排放检测公司", "DEPARTMENT_ENG": "TEXAS METCO Dallas", "FUNCTION": "检测", "EMPLOYEE_NUM": null, "LONGITUDE": "-96.844799", "LATITUDE": "32.976517"},
    { "ID": 161, "UUID": "160", "COUNTRY": "美国", "REGION": "", "OFFICE": "MarsGIS德克萨斯州休斯顿源排放检测公司", "OFFICE_ENG": "MarsGIS德克萨斯州METCO休斯顿", "ADDRESS": "德克萨斯 77573，联盟市，联盟市公园路551号", "DEPARTMENT": "德克萨斯州休斯顿源排放检测公司", "DEPARTMENT_ENG": "TEXAS METCO Houston", "FUNCTION": "检测", "EMPLOYEE_NUM": null, "LONGITUDE": "-95.085920", "LATITUDE": "29.491065"}
]